[
  {
    "id": 9821,
    "name": "Beaverton TC",
    "direction": "Northbound (To Portland International Airport)",
    "lat": 45.4916963655044,
    "long": -122.801200432586
  },
  {
    "id": 9969,
    "name": "Sunset TC",
    "direction": "Eastbound (To Portland International Airport)",
    "lat": 45.5100981340042,
    "long": -122.780756760901
  },
  {
    "id": 10120,
    "name": "Washington Park",
    "direction": "Eastbound (To Portland International Airport)",
    "lat": 45.5106531269153,
    "long": -122.71633983488
  },
  {
    "id": 10118,
    "name": "Goose Hollow/SW Jefferson St",
    "direction": "Eastbound (To Portland International Airport)",
    "lat": 45.5179893728857,
    "long": -122.693543601956
  },
  {
    "id": 9758,
    "name": "Providence Park",
    "direction": "Eastbound (To Portland International Airport)",
    "lat": 45.5213214834868,
    "long": -122.689886441539
  },
  {
    "id": 8333,
    "name": "Library/SW 9th Ave",
    "direction": "Eastbound (To Portland International Airport)",
    "lat": 45.5191601075814,
    "long": -122.681620407491
  },
  {
    "id": 8334,
    "name": "Pioneer Square South",
    "direction": "Eastbound (To Portland International Airport)",
    "lat": 45.5184955248011,
    "long": -122.679145330676
  },
  {
    "id": 8336,
    "name": "Yamhill District",
    "direction": "Eastbound (To Portland International Airport)",
    "lat": 45.5171526299949,
    "long": -122.674171902776
  },
  {
    "id": 8337,
    "name": "Oak/SW 1st Ave",
    "direction": "Northbound (To Portland International Airport)",
    "lat": 45.5202804596563,
    "long": -122.672146424037
  },
  {
    "id": 8338,
    "name": "Skidmore Fountain",
    "direction": "Northbound (To Portland International Airport)",
    "lat": 45.5230954685995,
    "long": -122.671256313655
  },
  {
    "id": 8339,
    "name": "Old Town/Chinatown",
    "direction": "Northbound (To Portland International Airport)",
    "lat": 45.5251796242201,
    "long": -122.671353185505
  },
  {
    "id": 8340,
    "name": "Rose Quarter TC",
    "direction": "Eastbound (To Portland International Airport)",
    "lat": 45.5300567999826,
    "long": -122.66491664178
  },
  {
    "id": 8341,
    "name": "Convention Center",
    "direction": "Eastbound (To Portland International Airport)",
    "lat": 45.5300519305776,
    "long": -122.661907990664
  },
  {
    "id": 8342,
    "name": "NE 7th Ave",
    "direction": "Eastbound (To Portland International Airport)",
    "lat": 45.5300550506696,
    "long": -122.657740001116
  },
  {
    "id": 8343,
    "name": "Lloyd Center/NE 11th Ave",
    "direction": "Eastbound (To Portland International Airport)",
    "lat": 45.5300671719759,
    "long": -122.65363838177
  },
  {
    "id": 8344,
    "name": "Hollywood/NE 42nd Ave TC",
    "direction": "Eastbound (To Portland International Airport)",
    "lat": 45.532772097942,
    "long": -122.620708267355
  },
  {
    "id": 8345,
    "name": "NE 60th Ave",
    "direction": "Eastbound (To Portland International Airport)",
    "lat": 45.5287635644905,
    "long": -122.602703268868
  },
  {
    "id": 8346,
    "name": "NE 82nd Ave",
    "direction": "Eastbound (To Portland International Airport)",
    "lat": 45.5332206411059,
    "long": -122.577794357852
  },
  {
    "id": 8347,
    "name": "Gateway/NE 99th Ave TC",
    "direction": "Southbound (To Portland International Airport)",
    "lat": 45.5302691055218,
    "long": -122.563577524511
  },
  {
    "id": 10572,
    "name": "Parkrose/Sumner TC",
    "direction": "Northbound (To Portland International Airport)",
    "lat": 45.5592007088953,
    "long": -122.56537956819
  },
  {
    "id": 10574,
    "name": "Cascades",
    "direction": "Westbound (To Portland International Airport)",
    "lat": 45.5723903276343,
    "long": -122.558289560695
  },
  {
    "id": 10576,
    "name": "Mt Hood Ave",
    "direction": "Northbound (To Portland International Airport)",
    "lat": 45.5773587738933,
    "long": -122.567151434765
  },
  {
    "id": 10579,
    "name": "Portland Int'l Airport",
    "direction": "Terminus (Portland International Airport)",
    "lat": 45.587584,
    "long": -122.5931
  }
]
