[{"id":8359,"name":"Cleveland Ave","direction":"Westbound (To Hillsboro)","lat":45.5017723342339,"long":-122.418449726735},{"id":8360,"name":"Gresham Central TC","direction":"Westbound (To Hillsboro)","lat":45.5027048597305,"long":-122.427348083366},{"id":8361,"name":"Gresham City Hall","direction":"Westbound (To Hillsboro)","lat":45.5059809966741,"long":-122.436284812825},{"id":13449,"name":"Civic Drive","direction":"Westbound (To Hillsboro)","lat":45.5082925858757,"long":-122.441843251073},{"id":8362,"name":"Ruby Junction/E 197th Ave","direction":"Westbound (To Hillsboro)","lat":45.516502040044,"long":-122.461119428588},{"id":8363,"name":"Rockwood/E 188th Ave","direction":"Westbound (To Hillsboro)","lat":45.5207233790928,"long":-122.471092945915},{"id":8364,"name":"E 181st Ave","direction":"Westbound (To Hillsboro)","lat":45.5220645756665,"long":-122.478074040133},{"id":8365,"name":"E 172nd Ave","direction":"Westbound (To Hillsboro)","lat":45.5221400538572,"long":-122.487140217377},{"id":8366,"name":"E 162nd Ave","direction":"Westbound (To Hillsboro)","lat":45.5222351970517,"long":-122.497431740365},{"id":8367,"name":"E 148th Ave","direction":"Westbound (To Hillsboro)","lat":45.5223435058001,"long":-122.511614417374},{"id":8368,"name":"E 122nd Ave","direction":"Westbound (To Hillsboro)","lat":45.5225560348638,"long":-122.538703552019},{"id":8369,"name":"E 102nd Ave","direction":"Westbound (To Hillsboro)","lat":45.5226911012391,"long":-122.559244326754},{"id":8370,"name":"Gateway/NE 99th Ave TC","direction":"Northbound (To Hillsboro)","lat":45.530839025141,"long":-122.563626896073},{"id":8371,"name":"NE 82nd Ave","direction":"Westbound (To Hillsboro)","lat":45.533485983840826,"long":-122.57847911346636},{"id":8372,"name":"NE 60th Ave","direction":"Westbound (To Hillsboro)","lat":45.5284911659404,"long":-122.603341898276},{"id":8373,"name":"Hollywood/NE 42nd Ave","direction":"Westbound (To Hillsboro)","lat":45.5329565531532,"long":-122.621366792078},{"id":8374,"name":"Lloyd Center/NE 11th Ave","direction":"Westbound (To Hillsboro)","lat":45.5301463713758,"long":-122.654334508265},{"id":8375,"name":"NE 7th Ave","direction":"Westbound (To Hillsboro)","lat":45.53015,"long":-122.658277},{"id":8376,"name":"Convention Center","direction":"Westbound (To Hillsboro)","lat":45.530137848543,"long":-122.662539549115},{"id":8377,"name":"Rose Quarter TC","direction":"Westbound (To Hillsboro)","lat":45.5302353512818,"long":-122.66555734012},{"id":8378,"name":"Old Town/Chinatown","direction":"Southbound (To Hillsboro)","lat":45.5246953346089,"long":-122.671466795694},{"id":8380,"name":"Oak/SW 1st Ave","direction":"Southbound (To Hillsboro)","lat":45.5198597205757,"long":-122.672522992326},{"id":8381,"name":"Morrison/SW 3rd Ave","direction":"Westbound (To Hillsboro)","lat":45.5181811277907,"long":-122.675385866199},{"id":8383,"name":"Pioneer Square North","direction":"Westbound (To Hillsboro)","lat":45.5192530913679,"long":-122.679474777158},{"id":8384,"name":"Galleria/SW 10th Ave","direction":"Westbound (To Hillsboro)","lat":45.5199099188694,"long":-122.681918753514},{"id":9757,"name":"Providence Park","direction":"Westbound (To Hillsboro)","lat":45.521832999998,"long":-122.68981599998},{"id":10117,"name":"Goose Hollow/SW Jefferson St","direction":"Westbound (To Hillsboro)","lat":45.5182356297709,"long":-122.694089417009},{"id":10121,"name":"Washington Park","direction":"Westbound (To Hillsboro)","lat":45.510661324633,"long":-122.717244395707},{"id":9624,"name":"Sunset TC","direction":"Westbound (To Hillsboro)","lat":45.5103834911766,"long":-122.781299103305},{"id":9818,"name":"Beaverton TC","direction":"Southbound (To Hillsboro)","lat":45.4913303686551,"long":-122.801723195359},{"id":9823,"name":"Beaverton Central","direction":"Westbound (To Hillsboro)","lat":45.4904249498466,"long":-122.807441381743},{"id":9825,"name":"Millikan Way","direction":"Westbound (To Hillsboro)","lat":45.4954211232751,"long":-122.821805929724},{"id":9819,"name":"Beaverton Creek","direction":"Northbound (To Hillsboro)","lat":45.5005843177686,"long":-122.833325448821},{"id":9827,"name":"Merlo Rd/SW 158th Ave","direction":"Westbound (To Hillsboro)","lat":45.505398884013,"long":-122.842423579432},{"id":9829,"name":"Elmonica/SW 170th Ave","direction":"Westbound (To Hillsboro)","lat":45.5101335586911,"long":-122.851732209868},{"id":9832,"name":"Willow Creek/SW 185th Ave TC","direction":"Westbound (To Hillsboro)","lat":45.517375259177,"long":-122.870517927838},{"id":9833,"name":"Quatama","direction":"Westbound (To Hillsboro)","lat":45.5233194229215,"long":-122.889131375697},{"id":9836,"name":"Orenco","direction":"Westbound (To Hillsboro)","lat":45.5302983625332,"long":-122.916198426399},{"id":9840,"name":"Hawthorn Farm","direction":"Westbound (To Hillsboro)","lat":45.5299206129352,"long":-122.931119810485},{"id":9837,"name":"Hillsboro Airport/Fairgrounds","direction":"Westbound (To Hillsboro)","lat":45.5269236271043,"long":-122.946499150393},{"id":9842,"name":"Washington/SE 12th Ave","direction":"Westbound (To Hillsboro)","lat":45.5212310664826,"long":-122.969867228068},{"id":9844,"name":"Hillsboro Health District","direction":"Westbound (To Hillsboro)","lat":45.5213148538066,"long":-122.978728435998},{"id":9845,"name":"Hillsboro Central/SE 3rd TC","direction":"Westbound (To Hillsboro)","lat":45.5214311941348,"long":-122.985652551304},{"id":9848,"name":"Hatfield Government Center","direction":"Terminus (Hillsboro)","lat":45.522204,"long":-122.991022}]
